{
  "Tashkent City": [
    { "name": "Bektemir", "lat": 41.2294, "lon": 69.3444 },
    { "name": "Chilanzar", "lat": 41.2725, "lon": 69.1978 },
    { "name": "Mirabad", "lat": 41.2886, "lon": 69.2819 },
    { "name": "Mirzo Ulugbek", "lat": 41.3283, "lon": 69.3242 },
    { "name": "Olmazar", "lat": 41.3547, "lon": 69.2236 },
    { "name": "Sergeli", "lat": 41.2189, "lon": 69.2431 },
    { "name": "Shaykhontohur", "lat": 41.3256, "lon": 69.2361 },
    { "name": "Uchtepa", "lat": 41.2953, "lon": 69.1764 },
    { "name": "Yakkasaray", "lat": 41.2797, "lon": 69.2522 },
    { "name": "Yashnobod", "lat": 41.2961, "lon": 69.3297 },
    { "name": "Yangihayot", "lat": 41.1925, "lon": 69.2144 },
    { "name": "Yunusabad", "lat": 41.3619, "lon": 69.2861 }
  ],
  "Republic of Karakalpakstan": [
    { "name": "Amudarya", "lat": 42.1500, "lon": 60.1000 },
    { "name": "Beruniy", "lat": 41.8500, "lon": 60.7500 },
    { "name": "Bozatau", "lat": 42.9200, "lon": 59.8700 },
    { "name": "Chimbay", "lat": 42.9333, "lon": 59.7833 },
    { "name": "Ellikqala", "lat": 41.8333, "lon": 61.1667 },
    { "name": "Kegeyli", "lat": 42.7667, "lon": 59.6167 },
    { "name": "Khodjeyli", "lat": 42.4000, "lon": 59.4500 },
    { "name": "Kungrad", "lat": 43.5000, "lon": 58.5000 },
    { "name": "Kanlykul", "lat": 42.6667, "lon": 59.1333 },
    { "name": "Karauzyak", "lat": 42.8500, "lon": 60.0167 },
    { "name": "Muynak", "lat": 44.4000, "lon": 59.0000 },
    { "name": "Nukus District", "lat": 42.5333, "lon": 59.6000 },
    { "name": "Shumanay", "lat": 42.4333, "lon": 59.1000 },
    { "name": "Takhtakupir", "lat": 43.0333, "lon": 60.5000 },
    { "name": "Tortkul", "lat": 41.7667, "lon": 61.1000 },
    { "name": "Takhiatash", "lat": 42.3333, "lon": 59.5500 }
  ],
  "Andijan Region": [
    { "name": "Altynkul", "lat": 40.8000, "lon": 72.1833 },
    { "name": "Andijan District", "lat": 40.7833, "lon": 72.3000 },
    { "name": "Asaka", "lat": 40.6333, "lon": 72.2333 },
    { "name": "Balykchi", "lat": 40.9333, "lon": 71.9333 },
    { "name": "Buston", "lat": 40.6833, "lon": 71.9167 },
    { "name": "Bulakbashi", "lat": 40.6833, "lon": 72.4833 },
    { "name": "Izbaskan", "lat": 40.9000, "lon": 72.2500 },
    { "name": "Jalakuduk", "lat": 40.7667, "lon": 72.6333 },
    { "name": "Khojaabad", "lat": 40.6667, "lon": 72.5667 },
    { "name": "Kurgantepa", "lat": 40.7333, "lon": 72.7667 },
    { "name": "Markhamat", "lat": 40.5000, "lon": 72.3333 },
    { "name": "Pakhtaabad", "lat": 40.9333, "lon": 72.4333 },
    { "name": "Shakhrikhan", "lat": 40.7167, "lon": 72.0500 },
    { "name": "Ulugnor", "lat": 40.7333, "lon": 71.7167 }
  ],
  "Bukhara Region": [
    { "name": "Alat", "lat": 39.5167, "lon": 63.8500 },
    { "name": "Bukhara District", "lat": 39.7667, "lon": 64.4500 },
    { "name": "Gijduvan", "lat": 40.1000, "lon": 64.6667 },
    { "name": "Jondor", "lat": 39.7333, "lon": 63.8500 },
    { "name": "Kagan", "lat": 39.7167, "lon": 64.5333 },
    { "name": "Karakul", "lat": 39.5000, "lon": 63.8333 },
    { "name": "Karaulbazar", "lat": 39.5000, "lon": 64.8000 },
    { "name": "Peshku", "lat": 40.0500, "lon": 64.2667 },
    { "name": "Romitan", "lat": 39.9333, "lon": 64.3833 },
    { "name": "Shafirkan", "lat": 40.1333, "lon": 64.5000 },
    { "name": "Vabkent", "lat": 40.0333, "lon": 64.5167 }
  ],
  "Fergana Region": [
    { "name": "Altyariq", "lat": 40.3833, "lon": 71.4833 },
    { "name": "Baghdad", "lat": 40.5000, "lon": 71.2167 },
    { "name": "Beshariq", "lat": 40.4333, "lon": 70.6167 },
    { "name": "Buvayda", "lat": 40.5333, "lon": 71.0167 },
    { "name": "Dangara", "lat": 40.5833, "lon": 70.9333 },
    { "name": "Fergana District", "lat": 40.2833, "lon": 71.7500 },
    { "name": "Furqat", "lat": 40.4167, "lon": 70.7667 },
    { "name": "Kuva", "lat": 40.5167, "lon": 72.0667 },
    { "name": "Rishtan", "lat": 40.3567, "lon": 71.2833 },
    { "name": "Sokh", "lat": 39.9500, "lon": 71.1333 },
    { "name": "Tashlaq", "lat": 40.4333, "lon": 71.8667 },
    { "name": "Uchkuprik", "lat": 40.5333, "lon": 71.1500 },
    { "name": "Uzbekistan District", "lat": 40.3333, "lon": 70.9333 },
    { "name": "Yazzyavan", "lat": 40.6500, "lon": 71.6333 },
    { "name": "Quvasoy", "lat": 40.3000, "lon": 71.9667 }
  ],
  "Jizzakh Region": [
    { "name": "Arnasay", "lat": 40.6833, "lon": 67.8000 },
    { "name": "Bakhmal", "lat": 39.9667, "lon": 67.6667 },
    { "name": "Dustlik", "lat": 40.5333, "lon": 68.0333 },
    { "name": "Forish", "lat": 40.6167, "lon": 66.9333 },
    { "name": "Gallaorol", "lat": 40.0167, "lon": 67.5833 },
    { "name": "Sharaf Rashidov", "lat": 40.1000, "lon": 67.8333 },
    { "name": "Mirzachul", "lat": 40.6667, "lon": 68.1833 },
    { "name": "Pakhtakor", "lat": 40.3167, "lon": 67.9500 },
    { "name": "Yangiobod", "lat": 39.9167, "lon": 68.5167 },
    { "name": "Zaamin", "lat": 39.9667, "lon": 68.4000 },
    { "name": "Zafarobod", "lat": 40.1833, "lon": 67.7167 },
    { "name": "Zarbdor", "lat": 40.1167, "lon": 68.1667 }
  ],
  "Kashkadarya Region": [
    { "name": "Chiraqchi", "lat": 39.0333, "lon": 66.5667 },
    { "name": "Dehkanabad", "lat": 38.3333, "lon": 66.5000 },
    { "name": "Guzar", "lat": 38.6167, "lon": 66.2500 },
    { "name": "Kamashi", "lat": 38.8000, "lon": 66.4667 },
    { "name": "Karshi District", "lat": 38.8667, "lon": 65.8000 },
    { "name": "Kasbi", "lat": 38.9333, "lon": 65.5833 },
    { "name": "Kitab", "lat": 39.1167, "lon": 66.8833 },
    { "name": "Koson", "lat": 39.0333, "lon": 65.4167 },
    { "name": "Mirishkor", "lat": 38.8500, "lon": 65.1000 },
    { "name": "Nishon", "lat": 38.4333, "lon": 65.5000 },
    { "name": "Shahrisabz", "lat": 39.0500, "lon": 66.8333 },
    { "name": "Yakkabog", "lat": 38.9800, "lon": 66.6800 },
    { "name": "Kukdala", "lat": 39.2667, "lon": 66.3167 }
  ],
  "Khorezm Region": [
    { "name": "Bogot", "lat": 41.3500, "lon": 60.8167 },
    { "name": "Gurlan", "lat": 41.8333, "lon": 60.5833 },
    { "name": "Khiva District", "lat": 41.3833, "lon": 60.3667 },
    { "name": "Khonqa", "lat": 41.4667, "lon": 60.7667 },
    { "name": "Kushkupir", "lat": 41.5333, "lon": 60.1167 },
    { "name": "Shavat", "lat": 41.6667, "lon": 60.3000 },
    { "name": "Urgench District", "lat": 41.5500, "lon": 60.6333 },
    { "name": "Yangiaryk", "lat": 41.4167, "lon": 60.5000 },
    { "name": "Yangibazar", "lat": 41.6500, "lon": 60.4833 },
    { "name": "Khazorasp", "lat": 41.3167, "lon": 61.0833 },
    { "name": "Tuproqqala", "lat": 41.2167, "lon": 61.3833 }
  ],
  "Namangan Region": [
    { "name": "Chartak", "lat": 41.0667, "lon": 71.8167 },
    { "name": "Chust", "lat": 41.0167, "lon": 71.2333 },
    { "name": "Kasansay", "lat": 41.2500, "lon": 71.5000 },
    { "name": "Mingbulak", "lat": 40.8333, "lon": 71.4667 },
    { "name": "Namangan District", "lat": 41.0000, "lon": 71.6000 },
    { "name": "Naryn", "lat": 40.8500, "lon": 71.9833 },
    { "name": "Pap", "lat": 41.0100, "lon": 70.9300 },
    { "name": "Turakurgan", "lat": 41.0000, "lon": 71.5167 },
    { "name": "Uchkurgan", "lat": 41.1167, "lon": 72.0833 },
    { "name": "Uychi", "lat": 41.0500, "lon": 71.7667 },
    { "name": "Yangikurgan", "lat": 41.2000, "lon": 71.7333 },
    { "name": "Davlatabad", "lat": 40.9950, "lon": 71.6100 }
  ],
  "Navoiy Region": [
    { "name": "Kanimekh", "lat": 40.1667, "lon": 65.1667 },
    { "name": "Karmana", "lat": 40.1333, "lon": 65.3667 },
    { "name": "Kyzyltepa", "lat": 40.1333, "lon": 64.8333 },
    { "name": "Navbakhor", "lat": 40.2333, "lon": 65.4833 },
    { "name": "Nurota", "lat": 40.5667, "lon": 65.6833 },
    { "name": "Tomdi", "lat": 41.7667, "lon": 64.6333 },
    { "name": "Uchquduq", "lat": 42.1567, "lon": 63.5533 },
    { "name": "Khatirchi", "lat": 40.1167, "lon": 65.9333 }
  ],
  "Samarkand Region": [
    { "name": "Bulungur", "lat": 39.7500, "lon": 67.2833 },
    { "name": "Ishtikhon", "lat": 39.9667, "lon": 66.4833 },
    { "name": "Jomboy", "lat": 39.7000, "lon": 67.0833 },
    { "name": "Kattakurgan District", "lat": 39.9000, "lon": 66.2500 },
    { "name": "Narpay", "lat": 40.0333, "lon": 66.0500 },
    { "name": "Nurobod", "lat": 39.6000, "lon": 66.2833 },
    { "name": "Oqdarya", "lat": 39.7500, "lon": 66.6833 },
    { "name": "Pastdargom", "lat": 39.6333, "lon": 66.6833 },
    { "name": "Paxtachi", "lat": 40.0333, "lon": 65.7167 },
    { "name": "Payariq", "lat": 39.9833, "lon": 66.8500 },
    { "name": "Qoʻshrabot", "lat": 40.3500, "lon": 66.6833 },
    { "name": "Samarkand District", "lat": 39.6500, "lon": 66.9500 },
    { "name": "Toyloq", "lat": 39.6000, "lon": 67.1167 },
    { "name": "Urgut", "lat": 39.4000, "lon": 67.2500 }
  ],
  "Surxondaryo Region": [
    { "name": "Angor", "lat": 37.3667, "lon": 67.2500 },
    { "name": "Boysun", "lat": 38.2000, "lon": 67.2000 },
    { "name": "Denau", "lat": 38.2667, "lon": 67.9000 },
    { "name": "Jarqoʻrgʻon", "lat": 37.5000, "lon": 67.4167 },
    { "name": "Kumkurgan", "lat": 37.8167, "lon": 67.6000 },
    { "name": "Muzrabot", "lat": 37.3333, "lon": 66.9000 },
    { "name": "Oltinsay", "lat": 38.2167, "lon": 67.8500 },
    { "name": "Sariosiyo", "lat": 38.4167, "lon": 67.9333 },
    { "name": "Sherabad", "lat": 37.6667, "lon": 67.0167 },
    { "name": "Shurchi", "lat": 38.0000, "lon": 67.7833 },
    { "name": "Termez District", "lat": 37.2833, "lon": 67.3000 },
    { "name": "Uzun", "lat": 38.3500, "lon": 68.0167 },
    { "name": "Qiziriq", "lat": 37.5833, "lon": 67.1333 },
    { "name": "Bandixon", "lat": 38.1167, "lon": 67.3333 }
  ],
  "Sirdaryo Region": [
    { "name": "Akaltyn", "lat": 40.4667, "lon": 68.1167 },
    { "name": "Bayaut", "lat": 40.4333, "lon": 68.9667 },
    { "name": "Gulistan District", "lat": 40.5000, "lon": 68.7500 },
    { "name": "Mirzaabad", "lat": 40.4833, "lon": 68.5333 },
    { "name": "Sayhunabad", "lat": 40.6333, "lon": 68.9000 },
    { "name": "Sardoba", "lat": 40.4167, "lon": 68.2500 },
    { "name": "Sirdaryo District", "lat": 40.8500, "lon": 68.6667 },
    { "name": "Khovos", "lat": 40.2167, "lon": 68.6833 }
  ],
  "Tashkent Region": [
    { "name": "Bekabad District", "lat": 40.2167, "lon": 69.2167 },
    { "name": "Bostanliq", "lat": 41.6167, "lon": 69.8333 },
    { "name": "Buka", "lat": 40.8100, "lon": 69.2000 },
    { "name": "Chinaz", "lat": 40.9333, "lon": 68.7500 },
    { "name": "Parkent", "lat": 41.2944, "lon": 69.6764 },
    { "name": "Pskent", "lat": 40.8936, "lon": 69.3514 },
    { "name": "Toshkent District", "lat": 41.3833, "lon": 69.1833 },
    { "name": "Quyichirchiq", "lat": 40.9333, "lon": 68.9500 },
    { "name": "Oʻrtachirchiq", "lat": 41.1167, "lon": 69.3333 },
    { "name": "Yuqorichirchiq", "lat": 41.3167, "lon": 69.5667 },
    { "name": "Yangiyul District", "lat": 41.1167, "lon": 69.0500 },
    { "name": "Zangiata", "lat": 41.2333, "lon": 69.1500 },
    { "name": "Ohangaron District", "lat": 40.9067, "lon": 69.6383 }
  ]
}
